[
  {
    "type": "Feature",
    "properties": {
      "name": "East Cove Pavilion"
    },
    "geometry": {
      "coordinates": [
        -93.43124485906752,
        34.57632124535455
      ],
      "type": "Point"
    }
  },
  {
    "type": "Feature",
    "properties": {
      "name": "Hickory Nut Mountain"
    },
    "geometry": {
      "coordinates": [
        -93.40772635215696,
        34.56413017495403
      ],
      "type": "Point"
    }
  },
  {
    "type": "Feature",
    "properties": {
      "name": "Joplin"
    },
    "geometry": {
      "coordinates": [
        -93.45197553145184,
        34.54434898546012
      ],
      "type": "Point"
    }
  },
  {
    "type": "Feature",
    "properties": {
      "name": "Tompkins Bend"
    },
    "geometry": {
      "coordinates": [
        -93.47078789234095,
        34.568732403410976
      ],
      "type": "Point"
    }
  },
  {
    "type": "Feature",
    "properties": {
      "name": "ADA"
    },
    "geometry": {
      "coordinates": [
        -93.47250300454692,
        34.543646238287565
      ],
      "type": "Point"
    }
  },
  {
    "type": "Feature",
    "properties": {
      "name": "47A"
    },
    "geometry": {
      "coordinates": [
        -93.38906785603287,
        34.54481133064378
      ],
      "type": "Point"
    }
  },
  {
    "type": "Feature",
    "properties": {
      "name": "Charlton"
    },
    "geometry": {
      "coordinates": [
        -93.38316305494537,
        34.51599072029107
      ],
      "type": "Point"
    }
  },
  {
    "type": "Feature",
    "properties": {
      "name": "Crystal Springs"
    },
    "geometry": {
      "coordinates": [
        -93.3514341198992,
        34.54138810542142
      ],
      "type": "Point"
    }
  },
  {
    "type": "Feature",
    "properties": {
      "name": "Bear Creek"
    },
    "geometry": {
      "coordinates": [
        -93.3423075843046,
        34.54804122506539
      ],
      "type": "Point"
    }
  },
  {
    "type": "Feature",
    "properties": {
      "name": "Brady Mountain Road"
    },
    "geometry": {
      "coordinates": [
        -93.2603652796786,
        34.558186497621435
      ],
      "type": "Point"
    }
  },
  {
    "type": "Feature",
    "properties": {
      "name": "Spillway"
    },
    "geometry": {
      "coordinates": [
        -93.22230412488346,
        34.567531655456946
      ],
      "type": "Point"
    }
  },
  {
    "type": "Feature",
    "properties": {
      "name": "Avery"
    },
    "geometry": {
      "coordinates": [
        -93.19212063798282,
        34.568943018340605
      ],
      "type": "Point"
    }
  }
]